id,channel_bandwidth,event_timestamp,mac_address,noise_floor,primary_channel,primary_phy,received_antenna_id,rssi,secondary_channel,transmit_protocol,beacon_event_id,id,area_ceiling,area_count,area_floor,area_radius,barometer_accuracy,classification_type,epoch2019,geodetic_altitude_meters,height_above_takeoff_meters,height_type,horizontal_accuracy,identity_type,latitude,longitude,operational_status,operator_geodetic_altitude_meters,operator_latitude,operator_location_type,operator_longitude,pressure_altitude_meters,speed_accuracy,speed_meters_second,time_of_applicability,time_of_applicability_accuracy,track_direction,ua_type,uas_category,uas_class,unique_id,unique_id_length,vertical_accuracy,vertical_speed_meters_second,epoch2019_datetime,,,,
20179994,0,54:24.5,60601fd9ca06,0,2437,0,WIFI_3,-84,0,0,20179989,20179989,,,,,,,,,,,,1,,,,,,,,,,,,,,2,,,1581F5YHA23870311N53,20,,,,,,,
20179993,0,54:24.5,60601fd9ca06,0,2437,0,WIFI_3,-84,0,0,20179988,20179988,24,1,24,0,0,0,154637663,315.5,108,0,10,1,39.97542191,-85.96469116,2,254,39.96910858,1,-85.96561432,-1000,2,10,32637,10,4,2,0,0,1581F5YHA23870311N53,20,3,2,11/25/2023 18:54,,,,
20179992,0,54:24.5,60601fd9ca06,0,2437,0,WIFI_3,-84,0,0,20179987,20179987,,,,,0,,,315.5,108,0,10,1,39.97542191,-85.96469116,2,,,,,-1000,2,10,32637,10,4,2,,,1581F5YHA23870311N53,20,3,2,,,,,
19160077,0,43:58.3,60601f2c7965,0,2437,0,WIFI_3,-83,0,0,19160072,19160072,24,1,24,0,0,0,154565037,423,200,0,10,1,39.97467041,-86.16384888,2,228,39.97470856,1,-86.16386414,-1000,2,0,26374,10,361,2,0,0,1581F6Z9C23AR003DEQL,20,3,0,11/24/2023 22:43,,,,
19160076,0,43:58.3,60601f2c7965,0,2437,0,WIFI_3,-83,0,0,19160071,19160071,24,1,24,0,0,0,154565009,423,200,0,10,1,39.97467041,-86.16384888,2,230,39.97469711,1,-86.16386414,-1000,2,0,26374,10,361,2,0,0,1581F6Z9C23AR003DEQL,20,3,0,11/24/2023 22:43,,,,
19160075,0,43:58.3,60601f2c7965,0,2437,0,WIFI_3,-83,0,0,19160070,19160070,24,1,24,0,0,0,154565009,458,236.5,0,10,1,39.9746666,-86.16384888,2,230,39.97469711,1,-86.16386414,-1000,2,0,26091,10,361,2,0,0,1581F6Z9C23AR003DEQL,20,3,-5,11/24/2023 22:43,,,,
19159836,0,43:30.5,60601f2c7965,0,2437,0,WIFI_1,-84,0,0,19159831,19159831,24,1,24,0,0,0,154388273,487,264,0,10,1,39.97468185,-86.16392517,2,234,39.97473145,1,-86.16383362,-1000,2,0,22734,10,361,2,0,0,1581F6Z9C23AR003DEQL,20,3,-4.5,11/22/2023 21:37,,,,
19159835,0,43:30.5,60601f2c7965,0,2437,0,WIFI_1,-84,0,0,19159830,19159830,24,1,24,0,0,0,154565009,458,236.5,0,10,1,39.9746666,-86.16384888,2,230,39.97469711,1,-86.16386414,-1000,2,0,26091,10,361,2,0,0,1581F6Z9C23AR003DEQL,20,3,-5,11/24/2023 22:43,,,,
19159834,0,43:30.5,60601f2c7965,0,2437,0,WIFI_1,-84,0,0,19159829,19159829,24,1,24,0,0,0,154388273,458,236.5,0,10,1,39.9746666,-86.16384888,2,234,39.97473145,1,-86.16383362,-1000,2,0,26091,10,361,2,0,0,1581F6Z9C23AR003DEQL,20,3,-5,11/22/2023 21:37,,,,
19159826,0,43:30.0,60601f2c7965,0,2437,0,WIFI_3,-83,0,0,19159821,19159821,24,1,24,0,0,0,154565009,458,236.5,0,10,1,39.9746666,-86.16384888,2,230,39.97469711,1,-86.16386414,-1000,2,0,26091,10,361,2,0,0,1581F6Z9C23AR003DEQL,20,3,-5,11/24/2023 22:43,,,,
19159825,0,43:30.0,60601f2c7965,0,2437,0,WIFI_3,-83,0,0,19159820,19159820,24,1,24,0,0,0,154565003,458,236.5,0,10,1,39.9746666,-86.16384888,2,230,39.97469711,1,-86.16386414,-1000,2,0,26091,10,361,2,0,0,1581F6Z9C23AR003DEQL,20,3,-5,11/24/2023 22:43,,,,
19159824,0,43:29.9,60601f2c7965,0,2437,0,WIFI_3,-83,0,0,19159819,19159819,24,1,24,0,0,0,154565003,487,267.5,0,10,1,39.97467041,-86.16384888,2,230,39.97469711,1,-86.16386414,-1000,2,0,26033,10,361,2,0,0,1581F6Z9C23AR003DEQL,20,3,-4.5,11/24/2023 22:43,,,,
19159777,0,43:24.2,60601f2c7965,0,2437,0,WIFI_3,-87,0,0,19159772,19159772,24,1,24,0,0,0,154565003,487,267.5,0,10,1,39.97467041,-86.16384888,2,230,39.97469711,1,-86.16386414,-1000,2,0,26033,10,361,2,0,0,1581F6Z9C23AR003DEQL,20,3,-4.5,11/24/2023 22:43,,,,
19159776,0,43:24.2,60601f2c7965,0,2437,0,WIFI_3,-87,0,0,19159771,19159771,24,1,24,0,0,0,154564974,627,420.5,0,10,1,39.9746666,-86.16384888,2,230,39.97469711,1,-86.16386414,-1000,2,0,25748,10,361,2,0,0,1581F6Z9C23AR003DEQL,20,3,-5,11/24/2023 22:42,,,,
19159775,0,43:24.2,60601f2c7965,0,2437,0,WIFI_3,-87,0,0,19159770,19159770,24,1,24,0,0,0,154564974,487,267.5,0,10,1,39.97467041,-86.16384888,2,230,39.97469711,1,-86.16386414,-1000,2,0,26033,10,361,2,0,0,1581F6Z9C23AR003DEQL,20,3,-4.5,11/24/2023 22:42,,,,
19159476,0,42:55.6,60601f2c7965,0,2437,0,WIFI_3,-86,0,0,19159471,19159471,24,1,24,0,0,0,154564936,701,499.5,0,10,1,39.9746666,-86.16385651,2,230,39.9746933,1,-86.16386414,-1000,2,0,25368,10,361,2,0,0,1581F6Z9C23AR003DEQL,20,3,0,11/24/2023 22:42,,,,
19159475,0,42:55.6,60601f2c7965,0,2437,0,WIFI_3,-86,0,0,19159470,19159470,24,1,24,0,0,0,154564936,627,420.5,0,10,1,39.9746666,-86.16384888,2,230,39.9746933,1,-86.16386414,-1000,2,0,25748,10,361,2,0,0,1581F6Z9C23AR003DEQL,20,3,-5,11/24/2023 22:42,,,,
19159474,0,42:55.6,60601f2c7965,0,2437,0,WIFI_3,-86,0,0,19159469,19159469,24,1,24,0,0,0,154564974,627,420.5,0,10,1,39.9746666,-86.16384888,2,230,39.97469711,1,-86.16386414,-1000,2,0,25748,10,361,2,0,0,1581F6Z9C23AR003DEQL,20,3,-5,11/24/2023 22:42,,,,
19159064,0,42:17.6,60601f2c7965,0,2437,0,WIFI_3,-86,0,0,19159059,19159059,24,1,24,0,0,0,154564936,701,499.5,0,10,1,39.9746666,-86.16385651,2,230,39.9746933,1,-86.16386414,-1000,2,0,25368,10,361,2,0,0,1581F6Z9C23AR003DEQL,20,3,0,11/24/2023 22:42,,,,
19159063,0,42:17.6,60601f2c7965,0,2437,0,WIFI_3,-86,0,0,19159058,19159058,24,1,24,0,0,0,154564904,701,499.5,0,10,1,39.9746666,-86.16385651,2,232,39.97468185,1,-86.16385651,-1000,2,0,25368,10,361,2,0,0,1581F6Z9C23AR003DEQL,20,3,0,11/24/2023 22:41,,,,
19159062,0,42:17.6,60601f2c7965,0,2437,0,WIFI_3,-86,0,0,19159057,19159057,24,1,24,0,0,0,154564904,601,392,0,10,1,39.97467041,-86.16383362,2,232,39.97468185,1,-86.16385651,-1000,2,0,25045,10,361,2,0,0,1581F6Z9C23AR003DEQL,20,3,5,11/24/2023 22:41,,,,
19158780,0,41:45.6,60601f2c7965,0,2437,0,WIFI_3,-83,0,0,19158775,19158775,24,1,24,0,0,0,154564904,601,392,0,10,1,39.97467041,-86.16383362,2,232,39.97468185,1,-86.16385651,-1000,2,0,25045,10,361,2,0,0,1581F6Z9C23AR003DEQL,20,3,5,11/24/2023 22:41,,,,
19158779,0,41:45.6,60601f2c7965,0,2437,0,WIFI_3,-83,0,0,19158774,19158774,24,1,24,0,0,0,154564888,601,392,0,10,1,39.97467041,-86.16383362,2,229,39.97468567,1,-86.16385651,-1000,2,0,25045,10,361,2,0,0,1581F6Z9C23AR003DEQL,20,3,5,11/24/2023 22:41,,,,
19158778,0,41:45.5,60601f2c7965,0,2437,0,WIFI_3,-83,0,0,19158773,19158773,24,1,24,0,0,0,154564888,521,306,0,10,1,39.97467422,-86.16383362,2,229,39.97468567,1,-86.16385651,-1000,2,0,24887,10,361,2,0,0,1581F6Z9C23AR003DEQL,20,3,5,11/24/2023 22:41,,,,
19158598,0,41:29.7,60601f2c7965,0,2437,0,WIFI_3,-82,0,0,19158593,19158593,24,1,24,0,0,0,154564877,521,306,0,10,1,39.97467422,-86.16383362,2,228,39.97468567,1,-86.16385651,-1000,2,0,24887,10,361,2,0,0,1581F6Z9C23AR003DEQL,20,3,5,11/24/2023 22:41,,,,
19158597,0,41:29.7,60601f2c7965,0,2437,0,WIFI_3,-82,0,0,19158592,19158592,24,1,24,0,0,0,154564888,521,306,0,10,1,39.97467422,-86.16383362,2,229,39.97468567,1,-86.16385651,-1000,2,0,24887,10,361,2,0,0,1581F6Z9C23AR003DEQL,20,3,5,11/24/2023 22:41,,,,
19158596,0,41:29.6,60601f2c7965,0,2437,0,WIFI_3,-82,0,0,19158591,19158591,24,1,24,0,0,0,154564877,465,245.5,0,10,1,39.97467041,-86.16383362,2,228,39.97468567,1,-86.16385651,-1000,2,0,24775,10,361,2,0,0,1581F6Z9C23AR003DEQL,20,3,5,11/24/2023 22:41,,,,
19158459,0,41:19.1,60601f2c7965,0,2437,0,WIFI_3,-81,0,0,19158454,19158454,24,1,24,0,0,0,154538881,465,245.5,0,10,1,39.97467041,-86.16383362,2,231,39.97473907,1,-86.16383362,-1000,2,0,24775,10,361,2,0,0,1581F6Z9C23AR003DEQL,20,3,5,11/24/2023 15:28,,,,
19158458,0,41:19.1,60601f2c7965,0,2437,0,WIFI_3,-81,0,0,19158453,19158453,24,1,24,0,0,0,154538881,448,229,0,10,1,39.97468948,-86.16384888,2,231,39.97473907,1,-86.16383362,-1000,2,0,16810,10,361,2,0,0,1581F6Z9C23AR003DEQL,20,3,-4.5,11/24/2023 15:28,,,,
19158457,0,41:19.1,60601f2c7965,0,2437,0,WIFI_3,-81,0,0,19158452,19158452,24,1,24,0,0,0,154564877,465,245.5,0,10,1,39.97467041,-86.16383362,2,228,39.97468567,1,-86.16385651,-1000,2,0,24775,10,361,2,0,0,1581F6Z9C23AR003DEQL,20,3,5,11/24/2023 22:41,,,,
18832034,0,28:02.0,60601f2c7965,0,2437,0,WIFI_3,-82,0,0,18832029,18832029,24,1,24,0,0,0,154538822,448,229,0,10,1,39.97468948,-86.16384888,2,233,39.97473145,1,-86.16384125,-1000,2,0,16810,10,361,2,0,0,1581F6Z9C23AR003DEQL,20,3,-4.5,11/24/2023 15:27,,,,
18832033,0,28:02.0,60601f2c7965,0,2437,0,WIFI_3,-82,0,0,18832028,18832028,24,1,24,0,0,0,154538881,448,229,0,10,1,39.97468948,-86.16384888,2,231,39.97473907,1,-86.16383362,-1000,2,0,16810,10,361,2,0,0,1581F6Z9C23AR003DEQL,20,3,-4.5,11/24/2023 15:28,,,,
18832031,0,28:01.9,60601f2c7965,0,2437,0,WIFI_3,-82,0,0,18832026,18832026,24,1,24,0,0,0,154538822,512,294.5,0,10,1,39.9746933,-86.16386414,2,233,39.97473145,1,-86.16384125,-1000,2,0,16224,10,361,2,0,0,1581F6Z9C23AR003DEQL,20,3,5,11/24/2023 15:27,,,,
18831185,0,27:03.6,60601f2c7965,0,2437,0,WIFI_3,-85,0,0,18831179,18831179,24,1,24,0,0,0,154388277,512,294.5,0,10,1,39.9746933,-86.16386414,2,234,39.97473145,1,-86.16383362,-1000,2,0,16224,10,361,2,0,0,1581F6Z9C23AR003DEQL,20,3,5,11/22/2023 21:37,,,,
18831184,0,27:03.6,60601f2c7965,0,2437,0,WIFI_3,-85,0,0,18831180,18831180,24,1,24,0,0,0,154388277,469,244,0,10,1,39.97468185,-86.16391754,2,234,39.97473145,1,-86.16383362,-1000,2,0,22772,10,361,2,0,0,1581F6Z9C23AR003DEQL,20,3,-4.5,11/22/2023 21:37,,,,
18831183,0,27:03.6,60601f2c7965,0,2437,0,WIFI_3,-85,0,0,18831178,18831178,24,1,24,0,0,0,154538822,512,294.5,0,10,1,39.9746933,-86.16386414,2,233,39.97473145,1,-86.16384125,-1000,2,0,16224,10,361,2,0,0,1581F6Z9C23AR003DEQL,20,3,5,11/24/2023 15:27,,,,
17972121,0,49:34.9,60601f0acffe,0,2437,0,WIFI_3,-63,0,0,17972116,17972116,24,1,24,0,0,0,154482574,287,72,0,10,1,39.96633148,-86.00460815,2,218,39.96644974,1,-86.00469971,-1000,2,0,29740,10,361,2,0,0,1581F6Z9A23ACML31DP9,20,3,-4,11/23/2023 23:49,,,,
17972120,0,49:34.9,60601f0acffe,0,2437,0,WIFI_3,-63,0,0,17972115,17972115,24,1,24,0,0,0,154482573,287,72,0,10,1,39.96633148,-86.00460815,2,218,39.96644974,1,-86.00469971,-1000,2,0,29740,10,361,2,0,0,1581F6Z9A23ACML31DP9,20,3,-4,11/23/2023 23:49,,,,
17972119,0,49:34.9,60601f0acffe,0,2437,0,WIFI_3,-63,0,0,17972114,17972114,24,1,24,0,0,0,154482573,288,73,0,10,1,39.96633148,-86.00460815,2,218,39.96644974,1,-86.00469971,-1000,2,0,29738,10,361,2,0,0,1581F6Z9A23ACML31DP9,20,3,-4,11/23/2023 23:49,,,,
17972117,0,49:34.8,60601f0acffe,0,2437,0,WIFI_3,-70,0,0,17972112,17972112,24,1,24,0,0,0,154482572,288,73,0,10,1,39.96633148,-86.00460815,2,218,39.96644974,1,-86.00469971,-1000,2,0,29738,10,361,2,0,0,1581F6Z9A23ACML31DP9,20,3,-4,11/23/2023 23:49,,,,
17972115,0,49:34.8,60601f0acffe,0,2437,0,WIFI_3,-70,0,0,17972110,17972110,24,1,24,0,0,0,154482572,292,77,0,10,1,39.96633148,-86.00460815,2,218,39.96644974,1,-86.00469971,-1000,2,0,29728,10,361,2,0,0,1581F6Z9A23ACML31DP9,20,3,-4,11/23/2023 23:49,,,,
17972114,0,49:34.7,60601f0acffe,0,2437,0,WIFI_3,-70,0,0,17972109,17972109,24,1,24,0,0,0,154482573,288,73,0,10,1,39.96633148,-86.00460815,2,218,39.96644974,1,-86.00469971,-1000,2,0,29738,10,361,2,0,0,1581F6Z9A23ACML31DP9,20,3,-4,11/23/2023 23:49,,,,
17972103,0,49:33.6,60601f0acffe,0,2437,0,WIFI_3,-58,0,0,17972098,17972098,24,1,24,0,0,0,154482572,292,77,0,10,1,39.96633148,-86.00460815,2,218,39.96644974,1,-86.00469971,-1000,2,0,29728,10,361,2,0,0,1581F6Z9A23ACML31DP9,20,3,-4,11/23/2023 23:49,,,,
17972102,0,49:33.6,60601f0acffe,0,2437,0,WIFI_3,-58,0,0,17972097,17972097,24,1,24,0,0,0,154482572,292,77,0,10,1,39.96633148,-86.00460815,2,218,39.96644974,1,-86.00469971,-1000,2,0,29728,10,361,2,0,0,1581F6Z9A23ACML31DP9,20,3,-4,11/23/2023 23:49,,,,
17972101,0,49:33.6,60601f0acffe,0,2437,0,WIFI_3,-58,0,0,17972096,17972096,24,1,24,0,0,0,154482572,293,78,0,10,1,39.96633148,-86.00460815,2,218,39.96644974,1,-86.00469971,-1000,2,0,29726,10,361,2,0,0,1581F6Z9A23ACML31DP9,20,3,-4.5,11/23/2023 23:49,,,,
17972097,0,49:33.5,60601f0acffe,0,2437,0,WIFI_3,-58,0,0,17972092,17972092,24,1,24,0,0,0,154482572,293,78,0,10,1,39.96633148,-86.00460815,2,218,39.96644974,1,-86.00469971,-1000,2,0,29726,10,361,2,0,0,1581F6Z9A23ACML31DP9,20,3,-4.5,11/23/2023 23:49,,,,
17972096,0,49:33.5,60601f0acffe,0,2437,0,WIFI_3,-58,0,0,17972091,17972091,24,1,24,0,0,0,154482572,293,78,0,10,1,39.96633148,-86.00460815,2,218,39.96644974,1,-86.00469971,-1000,2,0,29726,10,361,2,0,0,1581F6Z9A23ACML31DP9,20,3,-4.5,11/23/2023 23:49,,,,
17972095,0,49:33.4,60601f0acffe,0,2437,0,WIFI_3,-58,0,0,17972090,17972090,24,1,24,0,0,0,154482572,295,79.5,0,10,1,39.96633148,-86.00460815,2,218,39.96644974,1,-86.00469971,-1000,2,0,29722,10,361,2,0,0,1581F6Z9A23ACML31DP9,20,3,-4.5,11/23/2023 23:49,,,,
17972091,0,49:33.3,60601f0acffe,0,2437,0,WIFI_3,-67,0,0,17972086,17972086,24,1,24,0,0,0,154482572,295,79.5,0,10,1,39.96633148,-86.00460815,2,218,39.96644974,1,-86.00469971,-1000,2,0,29722,10,361,2,0,0,1581F6Z9A23ACML31DP9,20,3,-4.5,11/23/2023 23:49,,,,
17972090,0,49:33.3,60601f0acffe,0,2437,0,WIFI_3,-67,0,0,17972085,17972085,24,1,24,0,0,0,154482571,295,79.5,0,10,1,39.96633148,-86.00460815,2,218,39.96644974,1,-86.00470734,-1000,2,0,29722,10,361,2,0,0,1581F6Z9A23ACML31DP9,20,3,-4.5,11/23/2023 23:49,,,,
17972089,0,49:33.3,60601f0acffe,0,2437,0,WIFI_3,-67,0,0,17972084,17972084,24,1,24,0,0,0,154482571,298,82.5,0,10,1,39.96633148,-86.00460815,2,218,39.96644974,1,-86.00470734,-1000,2,0,29716,10,361,2,0,0,1581F6Z9A23ACML31DP9,20,3,-5,11/23/2023 23:49,,,,
17972080,0,49:32.7,60601f0acffe,0,2437,0,WIFI_3,-67,0,0,17972075,17972075,24,1,24,0,0,0,154482571,299,83.5,0,10,1,39.96633148,-86.00460815,2,218,39.96645355,1,-86.00470734,-1000,2,0,29714,10,361,2,0,0,1581F6Z9A23ACML31DP9,20,3,-4.5,11/23/2023 23:49,,,,
17972078,0,49:32.7,60601f0acffe,0,2437,0,WIFI_3,-67,0,0,17972073,17972073,24,1,24,0,0,0,154482571,298,82.5,0,10,1,39.96633148,-86.00460815,2,218,39.96644974,1,-86.00470734,-1000,2,0,29716,10,361,2,0,0,1581F6Z9A23ACML31DP9,20,3,-5,11/23/2023 23:49,,,,
17972077,0,49:32.6,60601f0acffe,0,2437,0,WIFI_3,-67,0,0,17972072,17972072,24,1,24,0,0,0,154482571,298,82.5,0,10,1,39.96633148,-86.00460815,2,218,39.96645355,1,-86.00470734,-1000,2,0,29716,10,361,2,0,0,1581F6Z9A23ACML31DP9,20,3,-5,11/23/2023 23:49,,,,
17972076,0,49:32.4,60601f0acffe,0,2437,0,WIFI_3,-65,0,0,17972071,17972071,24,1,24,0,0,0,154482571,299,83.5,0,10,1,39.96633148,-86.00460815,2,218,39.96645355,1,-86.00470734,-1000,2,0,29714,10,361,2,0,0,1581F6Z9A23ACML31DP9,20,3,-4.5,11/23/2023 23:49,,,,
17972075,0,49:32.3,60601f0acffe,0,2437,0,WIFI_3,-65,0,0,17972070,17972070,24,1,24,0,0,0,154482571,299,83.5,0,10,1,39.96633148,-86.00460815,2,218,39.96644592,1,-86.00470734,-1000,2,0,29714,10,361,2,0,0,1581F6Z9A23ACML31DP9,20,3,-4.5,11/23/2023 23:49,,,,
17972074,0,49:32.3,60601f0acffe,0,2437,0,WIFI_3,-65,0,0,17972069,17972069,24,1,24,0,0,0,154482571,300,85.5,0,10,1,39.96633148,-86.00460815,2,218,39.96644592,1,-86.00470734,-1000,2,0,29710,10,361,2,0,0,1581F6Z9A23ACML31DP9,20,3,-4,11/23/2023 23:49,,,,
17972071,0,49:32.0,60601f0acffe,0,2437,0,WIFI_3,-58,0,0,17972066,17972066,24,1,24,0,0,0,154482571,300,85.5,0,10,1,39.96633148,-86.00460815,2,218,39.96644592,1,-86.00470734,-1000,2,0,29710,10,361,2,0,0,1581F6Z9A23ACML31DP9,20,3,-4,11/23/2023 23:49,,,,
17972070,0,49:32.0,60601f0acffe,0,2437,0,WIFI_3,-58,0,0,17972065,17972065,24,1,24,0,0,0,154482570,300,85.5,0,10,1,39.96633148,-86.00460815,2,218,39.96644592,1,-86.00470734,-1000,2,0,29710,10,361,2,0,0,1581F6Z9A23ACML31DP9,20,3,-4,11/23/2023 23:49,,,,
17972069,0,49:32.0,60601f0acffe,0,2437,0,WIFI_3,-58,0,0,17972064,17972064,24,1,24,0,0,0,154482570,303,88,0,10,1,39.96633148,-86.00461578,2,218,39.96644592,1,-86.00470734,-1000,2,0.25,29704,10,361,2,0,0,1581F6Z9A23ACML31DP9,20,3,-3.5,11/23/2023 23:49,,,,
17972060,0,49:31.4,60601f0acffe,0,2437,0,WIFI_3,-63,0,0,17972055,17972055,24,1,24,0,0,0,154482570,303,88,0,10,1,39.96633148,-86.00461578,2,218,39.96644592,1,-86.00470734,-1000,2,0.25,29704,10,361,2,0,0,1581F6Z9A23ACML31DP9,20,3,-3.5,11/23/2023 23:49,,,,
17972059,0,49:31.4,60601f0acffe,0,2437,0,WIFI_3,-63,0,0,17972054,17972054,24,1,24,0,0,0,154482570,303,88,0,10,1,39.96633148,-86.00461578,2,218,39.96644592,1,-86.00470734,-1000,2,0.25,29704,10,361,2,0,0,1581F6Z9A23ACML31DP9,20,3,-3.5,11/23/2023 23:49,,,,
17972057,0,49:31.4,60601f0acffe,0,2437,0,WIFI_3,-63,0,0,17972052,17972052,24,1,24,0,0,0,154482570,304,88.5,0,10,1,39.9663353,-86.00461578,2,218,39.96644592,1,-86.00470734,-1000,2,0.5,29702,10,139,2,0,0,1581F6Z9A23ACML31DP9,20,3,-3,11/23/2023 23:49,,,,
17972050,0,49:31.1,60601f0acffe,0,2437,0,WIFI_3,-61,0,0,17972045,17972045,24,1,24,0,0,0,154482570,304,88.5,0,10,1,39.9663353,-86.00461578,2,218,39.96644592,1,-86.00470734,-1000,2,0.5,29702,10,139,2,0,0,1581F6Z9A23ACML31DP9,20,3,-3,11/23/2023 23:49,,,,
17972049,0,49:31.1,60601f0acffe,0,2437,0,WIFI_3,-61,0,0,17972044,17972044,24,1,24,0,0,0,154482569,304,88.5,0,10,1,39.9663353,-86.00461578,2,218,39.96644592,1,-86.00471497,-1000,2,0.5,29702,10,139,2,0,0,1581F6Z9A23ACML31DP9,20,3,-3,11/23/2023 23:49,,,,
17972048,0,49:31.0,60601f0acffe,0,2437,0,WIFI_3,-61,0,0,17972043,17972043,24,1,24,0,0,0,154482569,305,90,0,10,1,39.9663353,-86.00461578,2,218,39.96644592,1,-86.00471497,-1000,2,1,29698,10,135,2,0,0,1581F6Z9A23ACML31DP9,20,3,-2.5,11/23/2023 23:49,,,,
17972043,0,49:30.8,60601f0acffe,0,2437,0,WIFI_3,-66,0,0,17972038,17972038,24,1,24,0,0,0,154482569,305,90,0,10,1,39.9663353,-86.00461578,2,218,39.96644592,1,-86.00471497,-1000,2,1,29698,10,135,2,0,0,1581F6Z9A23ACML31DP9,20,3,-2.5,11/23/2023 23:49,,,,
17972041,0,49:30.8,60601f0acffe,0,2437,0,WIFI_3,-66,0,0,17972036,17972036,24,1,24,0,0,0,154482569,305,90,0,10,1,39.9663353,-86.00461578,2,218,39.96644592,1,-86.00471497,-1000,2,1,29698,10,135,2,0,0,1581F6Z9A23ACML31DP9,20,3,-2.5,11/23/2023 23:49,,,,
17972038,0,49:30.7,60601f0acffe,0,2437,0,WIFI_3,-66,0,0,17972033,17972033,24,1,24,0,0,0,154482569,306,91,0,10,1,39.96633911,-86.00462341,2,218,39.96644592,1,-86.00471497,-1000,2,2,29694,10,128,2,0,0,1581F6Z9A23ACML31DP9,20,3,-3,11/23/2023 23:49,,,,
17972033,0,49:30.3,60601f0acffe,0,2437,0,WIFI_3,-62,0,0,17972028,17972028,24,1,24,0,0,0,154482568,306,91,0,10,1,39.96633911,-86.00462341,2,218,39.96644592,1,-86.00471497,-1000,2,2,29694,10,128,2,0,0,1581F6Z9A23ACML31DP9,20,3,-3,11/23/2023 23:49,,,,
17972032,0,49:30.3,60601f0acffe,0,2437,0,WIFI_3,-62,0,0,17972027,17972027,24,1,24,0,0,0,154482569,306,91,0,10,1,39.96633911,-86.00462341,2,218,39.96644592,1,-86.00471497,-1000,2,2,29694,10,128,2,0,0,1581F6Z9A23ACML31DP9,20,3,-3,11/23/2023 23:49,,,,
17972031,0,49:30.2,60601f0acffe,0,2437,0,WIFI_3,-62,0,0,17972026,17972026,24,1,24,0,0,0,154482568,308,93,0,10,1,39.96634674,-86.00463104,2,218,39.96644592,1,-86.00471497,-1000,2,1,29688,10,126,2,0,0,1581F6Z9A23ACML31DP9,20,3,-3,11/23/2023 23:49,,,,
17972022,0,49:30.1,60601f0acffe,0,2437,0,WIFI_3,-70,0,0,17972017,17972017,24,1,24,0,0,0,154482559,328,114.5,0,10,1,39.96635818,-86.00463867,2,217,39.96644211,1,-86.00473785,-1000,2,0,29606,10,361,2,0,0,1581F6Z9A23ACML31DP9,20,3,0,11/23/2023 23:49,,,,
17972021,0,49:30.1,60601f0acffe,0,2437,0,WIFI_3,-70,0,0,17972016,17972016,24,1,24,0,0,0,154482560,328,114.5,0,10,1,39.96635818,-86.00463867,2,217,39.96644592,1,-86.00473785,-1000,2,0,29606,10,361,2,0,0,1581F6Z9A23ACML31DP9,20,3,0,11/23/2023 23:49,,,,
17972011,0,49:29.6,60601f0acffe,0,2437,0,WIFI_3,-67,0,0,17972006,17972006,24,1,24,0,0,0,154482568,308,93,0,10,1,39.96634674,-86.00463104,2,218,39.96644592,1,-86.00471497,-1000,2,1,29688,10,126,2,0,0,1581F6Z9A23ACML31DP9,20,3,-3,11/23/2023 23:49,,,,
17972010,0,49:29.6,60601f0acffe,0,2437,0,WIFI_3,-67,0,0,17972005,17972005,24,1,24,0,0,0,154482567,308,93,0,10,1,39.96634674,-86.00463104,2,218,39.96644592,1,-86.00471497,-1000,2,1,29688,10,126,2,0,0,1581F6Z9A23ACML31DP9,20,3,-3,11/23/2023 23:49,,,,
17972008,0,49:29.6,60601f0acffe,0,2437,0,WIFI_3,-67,0,0,17972003,17972003,24,1,24,0,0,0,154482567,311,97,0,10,1,39.96635437,-86.00463867,2,218,39.96644592,1,-86.00471497,-1000,2,1,29676,10,132,2,0,0,1581F6Z9A23ACML31DP9,20,3,-3,11/23/2023 23:49,,,,
17971988,0,49:28.5,60601f0acffe,0,2437,0,WIFI_3,-68,0,0,17971983,17971983,24,1,24,0,0,0,154482567,312,97.5,0,10,1,39.96635437,-86.00463867,2,218,39.96644592,1,-86.00471497,-1000,2,1.25,29674,10,131,2,0,0,1581F6Z9A23ACML31DP9,20,3,-3,11/23/2023 23:49,,,,
17971987,0,49:28.5,60601f0acffe,0,2437,0,WIFI_3,-68,0,0,17971982,17971982,24,1,24,0,0,0,154482567,311,97,0,10,1,39.96635437,-86.00463867,2,218,39.96644592,1,-86.00471497,-1000,2,1,29676,10,132,2,0,0,1581F6Z9A23ACML31DP9,20,3,-3,11/23/2023 23:49,,,,
17971986,0,49:28.5,60601f0acffe,0,2437,0,WIFI_3,-68,0,0,17971981,17971981,24,1,24,0,0,0,154482567,311,97,0,10,1,39.96635437,-86.00463867,2,218,39.96644592,1,-86.00471497,-1000,2,1,29676,10,132,2,0,0,1581F6Z9A23ACML31DP9,20,3,-3,11/23/2023 23:49,,,,
17971981,0,49:28.4,60601f0acffe,0,2437,0,WIFI_3,-60,0,0,17971976,17971976,24,1,24,0,0,0,154482567,312,97.5,0,10,1,39.96635437,-86.00463867,2,218,39.96644592,1,-86.00471497,-1000,2,1.25,29674,10,131,2,0,0,1581F6Z9A23ACML31DP9,20,3,-3,11/23/2023 23:49,,,,
17971980,0,49:28.4,60601f0acffe,0,2437,0,WIFI_3,-60,0,0,17971975,17971975,24,1,24,0,0,0,154482567,312,97.5,0,10,1,39.96635437,-86.00463867,2,218,39.96644592,1,-86.00471497,-1000,2,1.25,29674,10,131,2,0,0,1581F6Z9A23ACML31DP9,20,3,-3,11/23/2023 23:49,,,,
17971979,0,49:28.3,60601f0acffe,0,2437,0,WIFI_3,-60,0,0,17971974,17971974,24,1,24,0,0,0,154482567,313,98,0,10,1,39.96635818,-86.00463867,2,218,39.96644592,1,-86.00471497,-1000,2,1,29672,10,131,2,0,0,1581F6Z9A23ACML31DP9,20,3,-3.5,11/23/2023 23:49,,,,
17971976,0,49:28.2,60601f0acffe,0,2437,0,WIFI_3,-68,0,0,17971971,17971971,24,1,24,0,0,0,154482567,313,98,0,10,1,39.96635818,-86.00463867,2,218,39.96644592,1,-86.00471497,-1000,2,1,29672,10,131,2,0,0,1581F6Z9A23ACML31DP9,20,3,-3.5,11/23/2023 23:49,,,,
17971975,0,49:28.2,60601f0acffe,0,2437,0,WIFI_3,-68,0,0,17971970,17971970,24,1,24,0,0,0,154482566,313,98,0,10,1,39.96635818,-86.00463867,2,218,39.96644592,1,-86.0047226,-1000,2,1,29672,10,131,2,0,0,1581F6Z9A23ACML31DP9,20,3,-3.5,11/23/2023 23:49,,,,
17971973,0,49:28.2,60601f0acffe,0,2437,0,WIFI_3,-68,0,0,17971968,17971968,24,1,24,0,0,0,154482566,316,101.5,0,10,1,39.96635818,-86.00463867,2,218,39.96644592,1,-86.0047226,-1000,2,0,29664,10,361,2,0,0,1581F6Z9A23ACML31DP9,20,3,-3.5,11/23/2023 23:49,,,,
17971951,0,49:27.5,60601f0acffe,0,2437,0,WIFI_3,-72,0,0,17971946,17971946,24,1,24,0,0,0,154482562,327,113.5,0,10,1,39.96635818,-86.00463867,2,217,39.96644592,1,-86.00473785,-1000,2,0,29620,10,361,2,0,0,1581F6Z9A23ACML31DP9,20,3,-1,11/23/2023 23:49,,,,
17971950,0,49:27.5,60601f0acffe,0,2437,0,WIFI_3,-72,0,0,17971945,17971945,24,1,24,0,0,0,154482561,327,114,0,10,1,39.96635818,-86.00463867,2,217,39.96644592,1,-86.00473785,-1000,2,0,29612,10,361,2,0,0,1581F6Z9A23ACML31DP9,20,3,-1,11/23/2023 23:49,,,,
17971946,0,49:27.2,60601f0acffe,0,2437,0,WIFI_3,-72,0,0,17971941,17971941,24,1,24,0,0,0,154482561,327,113.5,0,10,1,39.96635818,-86.00463867,2,217,39.96644592,1,-86.00473785,-1000,2,0,29620,10,361,2,0,0,1581F6Z9A23ACML31DP9,20,3,-1,11/23/2023 23:49,,,,
17971945,0,49:27.2,60601f0acffe,0,2437,0,WIFI_3,-65,0,0,17971940,17971940,24,1,24,0,0,0,154482566,316,101.5,0,10,1,39.96635818,-86.00463867,2,218,39.96644592,1,-86.0047226,-1000,2,0,29664,10,361,2,0,0,1581F6Z9A23ACML31DP9,20,3,-3.5,11/23/2023 23:49,,,,
17971944,0,49:27.2,60601f0acffe,0,2437,0,WIFI_3,-65,0,0,17971939,17971939,24,1,24,0,0,0,154482566,316,101.5,0,10,1,39.96635818,-86.00463867,2,218,39.96644592,1,-86.0047226,-1000,2,0,29664,10,361,2,0,0,1581F6Z9A23ACML31DP9,20,3,-3.5,11/23/2023 23:49,,,,
17971943,0,49:27.2,60601f0acffe,0,2437,0,WIFI_3,-65,0,0,17971938,17971938,24,1,24,0,0,0,154482566,316,102,0,10,1,39.96635818,-86.00463867,2,218,39.96644592,1,-86.0047226,-1000,2,0,29662,10,361,2,0,0,1581F6Z9A23ACML31DP9,20,3,-3.5,11/23/2023 23:49,,,,
17971942,0,49:27.1,60601f0acffe,0,2437,0,WIFI_3,-64,0,0,17971937,17971937,24,1,24,0,0,0,154482566,316,102,0,10,1,39.96635818,-86.00463867,2,218,39.96644592,1,-86.0047226,-1000,2,0,29662,10,361,2,0,0,1581F6Z9A23ACML31DP9,20,3,-3.5,11/23/2023 23:49,,,,
17971941,0,49:27.1,60601f0acffe,0,2437,0,WIFI_3,-64,0,0,17971936,17971936,24,1,24,0,0,0,154482565,316,102,0,10,1,39.96635818,-86.00463867,2,218,39.96644592,1,-86.00473022,-1000,2,0,29662,10,361,2,0,0,1581F6Z9A23ACML31DP9,20,3,-3.5,11/23/2023 23:49,,,,
17971940,0,49:27.0,60601f0acffe,0,2437,0,WIFI_3,-64,0,0,17971935,17971935,24,1,24,0,0,0,154482565,318,103.5,0,10,1,39.96635818,-86.00463867,2,218,39.96644592,1,-86.00473022,-1000,2,0,29658,10,361,2,0,0,1581F6Z9A23ACML31DP9,20,3,-3,11/23/2023 23:49,,,,
17971914,0,49:26.6,60601f0acffe,0,2437,0,WIFI_3,-64,0,0,17971909,17971909,24,1,24,0,0,0,154482565,318,103.5,0,10,1,39.96635818,-86.00463867,2,218,39.96644592,1,-86.00473022,-1000,2,0,29658,10,361,2,0,0,1581F6Z9A23ACML31DP9,20,3,-3,11/23/2023 23:49,,,,
17971913,0,49:26.6,60601f0acffe,0,2437,0,WIFI_3,-64,0,0,17971908,17971908,24,1,24,0,0,0,154482565,318,103.5,0,10,1,39.96635818,-86.00463867,2,218,39.96644592,1,-86.00473022,-1000,2,0,29658,10,361,2,0,0,1581F6Z9A23ACML31DP9,20,3,-3,11/23/2023 23:49,,,,
17971912,0,49:26.5,60601f0acffe,0,2437,0,WIFI_3,-64,0,0,17971907,17971907,24,1,24,0,0,0,154482565,319,105.5,0,10,1,39.96635818,-86.00463867,2,218,39.96644592,1,-86.00473022,-1000,2,0,29652,10,361,2,0,0,1581F6Z9A23ACML31DP9,20,3,-3,11/23/2023 23:49,,,,
17971911,0,49:26.5,60601f0acffe,0,2437,0,WIFI_3,-68,0,0,17971906,17971906,24,1,24,0,0,0,154482561,327,114,0,10,1,39.96635818,-86.00463867,2,217,39.96644592,1,-86.00473785,-1000,2,0,29612,10,361,2,0,0,1581F6Z9A23ACML31DP9,20,3,-1,11/23/2023 23:49,,,,
17971909,0,49:26.5,60601f0acffe,0,2437,0,WIFI_3,-68,0,0,17971904,17971904,24,1,24,0,0,0,154482560,327,114,0,10,1,39.96635818,-86.00463867,2,217,39.96644592,1,-86.00473785,-1000,2,0,29612,10,361,2,0,0,1581F6Z9A23ACML31DP9,20,3,-1,11/23/2023 23:49,,,,
17971907,0,49:26.3,60601f0acffe,0,2437,0,WIFI_3,-65,0,0,17971902,17971902,24,1,24,0,0,0,154482565,319,105.5,0,10,1,39.96635818,-86.00463867,2,218,39.96644592,1,-86.00473022,-1000,2,0,29652,10,361,2,0,0,1581F6Z9A23ACML31DP9,20,3,-3,11/23/2023 23:49,,,,
17971906,0,49:26.3,60601f0acffe,0,2437,0,WIFI_3,-65,0,0,17971901,17971901,24,1,24,0,0,0,154482565,320,106.5,0,10,1,39.96635818,-86.00463867,2,218,39.96644974,1,-86.00473022,-1000,2,0,29650,10,361,2,0,0,1581F6Z9A23ACML31DP9,20,3,-3,11/23/2023 23:49,,,,
17971905,0,49:26.2,60601f0acffe,0,2437,0,WIFI_3,-65,0,0,17971900,17971900,24,1,24,0,0,0,154482565,319,105.5,0,10,1,39.96635818,-86.00463867,2,218,39.96644974,1,-86.00473022,-1000,2,0,29652,10,361,2,0,0,1581F6Z9A23ACML31DP9,20,3,-3,11/23/2023 23:49,,,,
17971903,0,49:26.2,60601f0acffe,0,2437,0,WIFI_3,-68,0,0,17971898,17971898,24,1,24,0,0,0,154482560,328,114.5,0,10,1,39.96635818,-86.00463867,2,217,39.96644592,1,-86.00473785,-1000,2,0,29606,10,361,2,0,0,1581F6Z9A23ACML31DP9,20,3,0,11/23/2023 23:49,,,,
17971891,0,49:26.0,60601f0acffe,0,2437,0,WIFI_3,-70,0,0,17971886,17971886,24,1,24,0,0,0,154482562,320,106.5,0,10,1,39.96635818,-86.00463867,2,217,39.96644592,1,-86.00473785,-1000,2,0,29650,10,361,2,0,0,1581F6Z9A23ACML31DP9,20,3,-3,11/23/2023 23:49,,,,
17971890,0,49:26.0,60601f0acffe,0,2437,0,WIFI_3,-70,0,0,17971885,17971885,24,1,24,0,0,0,154482565,320,106.5,0,10,1,39.96635818,-86.00463867,2,218,39.96644974,1,-86.00473022,-1000,2,0,29650,10,361,2,0,0,1581F6Z9A23ACML31DP9,20,3,-3,11/23/2023 23:49,,,,
17971885,0,49:26.0,60601f0acffe,0,2437,0,WIFI_3,-70,0,0,17971881,17971881,24,1,24,0,0,0,154482559,328,114.5,0,10,1,39.96635818,-86.00463867,2,217,39.96644211,1,-86.00473785,-1000,2,0,29598,10,361,2,0,0,1581F6Z9A23ACML31DP9,20,3,0,11/23/2023 23:49,,,,
17971879,0,49:25.9,60601f0acffe,0,2437,0,WIFI_3,-70,0,0,17971874,17971874,24,1,24,0,0,0,154482562,327,113.5,0,10,1,39.96635818,-86.00463867,2,217,39.96644592,1,-86.00473785,-1000,2,0,29620,10,361,2,0,0,1581F6Z9A23ACML31DP9,20,3,-1,11/23/2023 23:49,,,,
17971864,0,49:20.7,60601f0acffe,0,2437,0,WIFI_3,-71,0,0,17971859,17971859,24,1,24,0,0,0,154482559,328,114.5,0,10,1,39.96635818,-86.00463867,2,217,39.96644211,1,-86.00473785,-1000,2,0,29598,10,361,2,0,0,1581F6Z9A23ACML31DP9,20,3,0,11/23/2023 23:49,,,,
17971862,0,49:20.7,60601f0acffe,0,2437,0,WIFI_3,-71,0,0,17971857,17971857,24,1,24,0,0,0,154482559,327,114.5,0,10,1,39.96635818,-86.00463867,2,217,39.96644211,1,-86.00473785,-1000,2,0,29594,10,361,2,0,0,1581F6Z9A23ACML31DP9,20,3,0,11/23/2023 23:49,,,,
17971861,0,49:20.7,60601f0acffe,0,2437,0,WIFI_3,-71,0,0,17971856,17971856,24,1,24,0,0,0,154482559,328,114.5,0,10,1,39.96635818,-86.00463867,2,217,39.96644211,1,-86.00473785,-1000,2,0,29598,10,361,2,0,0,1581F6Z9A23ACML31DP9,20,3,0,11/23/2023 23:49,,,,
17971852,0,49:20.5,60601f0acffe,0,2437,0,WIFI_3,-70,0,0,17971847,17971847,24,1,24,0,0,0,154482559,327,114.5,0,10,1,39.96635818,-86.00463867,2,217,39.96644211,1,-86.00473785,-1000,2,0,29594,10,361,2,0,0,1581F6Z9A23ACML31DP9,20,3,0,11/23/2023 23:49,,,,
17971851,0,49:20.5,60601f0acffe,0,2437,0,WIFI_3,-70,0,0,17971846,17971846,24,1,24,0,0,0,154482557,327,114.5,0,10,1,39.96635818,-86.00463867,2,217,39.96644211,1,-86.00473785,-1000,2,0,29594,10,361,2,0,0,1581F6Z9A23ACML31DP9,20,3,0,11/23/2023 23:49,,,,
17971850,0,49:20.5,60601f0acffe,0,2437,0,WIFI_3,-70,0,0,17971845,17971845,24,1,24,0,0,0,154482557,325,112.5,0,10,1,39.96635818,-86.00463867,2,217,39.96644211,1,-86.00473785,-1000,2,0,29574,10,361,2,0,0,1581F6Z9A23ACML31DP9,20,3,2.5,11/23/2023 23:49,,,,
17971811,0,49:18.3,60601f0acffe,0,2437,0,WIFI_3,-73,0,0,17971806,17971806,24,1,24,0,0,0,154482557,325,112.5,0,10,1,39.96635818,-86.00463867,2,218,39.96644211,1,-86.00473785,-1000,2,0,29574,10,361,2,0,0,1581F6Z9A23ACML31DP9,20,3,2.5,11/23/2023 23:49,,,,
17971810,0,49:18.3,60601f0acffe,0,2437,0,WIFI_3,-73,0,0,17971805,17971805,24,1,24,0,0,0,154482557,325,112.5,0,10,1,39.96635818,-86.00463867,2,217,39.96644211,1,-86.00473785,-1000,2,0,29574,10,361,2,0,0,1581F6Z9A23ACML31DP9,20,3,2.5,11/23/2023 23:49,,,,
17971809,0,49:18.2,60601f0acffe,0,2437,0,WIFI_3,-73,0,0,17971804,17971804,24,1,24,0,0,0,154482557,324,112,0,10,1,39.96635818,-86.00463867,2,218,39.96644211,1,-86.00473785,-1000,2,0,29570,10,361,2,0,0,1581F6Z9A23ACML31DP9,20,3,2.5,11/23/2023 23:49,,,,
17971805,0,49:17.9,60601f0acffe,0,2437,0,WIFI_3,-69,0,0,17971800,17971800,24,1,24,0,0,0,154482556,322,110,0,10,1,39.96635818,-86.00463867,2,218,39.96644211,1,-86.00473785,-1000,2,0,29562,10,361,2,0,0,1581F6Z9A23ACML31DP9,20,3,2,11/23/2023 23:49,,,,
17971804,0,49:17.9,60601f0acffe,0,2437,0,WIFI_3,-69,0,0,17971799,17971799,24,1,24,0,0,0,154482557,324,112,0,10,1,39.96635818,-86.00463867,2,218,39.96644211,1,-86.00473785,-1000,2,0,29570,10,361,2,0,0,1581F6Z9A23ACML31DP9,20,3,2.5,11/23/2023 23:49,,,,
17971803,0,49:17.9,60601f0acffe,0,2437,0,WIFI_3,-69,0,0,17971798,17971798,24,1,24,0,0,0,154482556,324,112,0,10,1,39.96635818,-86.00463867,2,218,39.96644211,1,-86.00473785,-1000,2,0,29570,10,361,2,0,0,1581F6Z9A23ACML31DP9,20,3,2.5,11/23/2023 23:49,,,,
17971789,0,49:17.0,60601f0acffe,0,2437,0,WIFI_3,-70,0,0,17971784,17971784,24,1,24,0,0,0,154482556,322,110,0,10,1,39.96635818,-86.00463867,2,218,39.96644211,1,-86.00473785,-1000,2,0,29562,10,361,2,0,0,1581F6Z9A23ACML31DP9,20,3,2,11/23/2023 23:49,,,,
17971788,0,49:17.0,60601f0acffe,0,2437,0,WIFI_3,-70,0,0,17971783,17971783,24,1,24,0,0,0,154482556,322,110,0,10,1,39.96635818,-86.00463867,2,218,39.96644211,1,-86.00473022,-1000,2,0,29562,10,361,2,0,0,1581F6Z9A23ACML31DP9,20,3,2,11/23/2023 23:49,,,,
17971787,0,49:17.0,60601f0acffe,0,2437,0,WIFI_3,-70,0,0,17971782,17971782,24,1,24,0,0,0,154482556,322,110,0,10,1,39.96635818,-86.00463867,2,218,39.96644211,1,-86.00473022,-1000,2,0,29560,10,361,2,0,0,1581F6Z9A23ACML31DP9,20,3,1.5,11/23/2023 23:49,,,,
17971782,0,49:16.9,60601f0acffe,0,2437,0,WIFI_3,-72,0,0,17971777,17971777,24,1,24,0,0,0,154482555,322,109.5,0,10,1,39.966362,-86.00463867,2,218,39.96644211,1,-86.00473022,-1000,2,0.25,29554,10,125,2,0,0,1581F6Z9A23ACML31DP9,20,3,0,11/23/2023 23:49,,,,
17971781,0,49:16.9,60601f0acffe,0,2437,0,WIFI_3,-72,0,0,17971776,17971776,24,1,24,0,0,0,154482556,322,110,0,10,1,39.96635818,-86.00463867,2,218,39.96644211,1,-86.00473022,-1000,2,0,29560,10,361,2,0,0,1581F6Z9A23ACML31DP9,20,3,1.5,11/23/2023 23:49,,,,
17971777,0,49:16.8,60601f0acffe,0,2437,0,WIFI_3,-72,0,0,17971772,17971772,24,1,24,0,0,0,154482555,322,110,0,10,1,39.96635818,-86.00463867,2,218,39.96644211,1,-86.00473022,-1000,2,0,29560,10,361,2,0,0,1581F6Z9A23ACML31DP9,20,3,1.5,11/23/2023 23:49,,,,
17971767,0,49:16.4,60601f0acffe,0,2437,0,WIFI_3,-66,0,0,17971762,17971762,24,1,24,0,0,0,154482555,322,109.5,0,10,1,39.966362,-86.0046463,2,218,39.96643829,1,-86.00473022,-1000,2,1.25,29550,10,127,2,0,0,1581F6Z9A23ACML31DP9,20,3,0,11/23/2023 23:49,,,,
17971766,0,49:16.4,60601f0acffe,0,2437,0,WIFI_3,-66,0,0,17971761,17971761,24,1,24,0,0,0,154482555,322,109.5,0,10,1,39.966362,-86.00463867,2,218,39.96644211,1,-86.00473022,-1000,2,0.25,29554,10,125,2,0,0,1581F6Z9A23ACML31DP9,20,3,0,11/23/2023 23:49,,,,
17971764,0,49:16.3,60601f0acffe,0,2437,0,WIFI_3,-66,0,0,17971759,17971759,24,1,24,0,0,0,154482555,322,109.5,0,10,1,39.966362,-86.00463867,2,218,39.96643829,1,-86.00473022,-1000,2,0.25,29554,10,125,2,0,0,1581F6Z9A23ACML31DP9,20,3,0,11/23/2023 23:49,,,,
17971763,0,49:16.1,60601f0acffe,0,2437,0,WIFI_3,-63,0,0,17971758,17971758,24,1,24,0,0,0,154482555,322,109.5,0,10,1,39.966362,-86.0046463,2,218,39.96643829,1,-86.00473022,-1000,2,1.25,29550,10,127,2,0,0,1581F6Z9A23ACML31DP9,20,3,0,11/23/2023 23:49,,,,
17971762,0,49:16.1,60601f0acffe,0,2437,0,WIFI_3,-63,0,0,17971757,17971757,24,1,24,0,0,0,154482554,322,109.5,0,10,1,39.966362,-86.0046463,2,218,39.96643829,1,-86.00473022,-1000,2,1.25,29550,10,127,2,0,0,1581F6Z9A23ACML31DP9,20,3,0,11/23/2023 23:49,,,,
17971761,0,49:16.0,60601f0acffe,0,2437,0,WIFI_3,-63,0,0,17971756,17971756,24,1,24,0,0,0,154482554,322,109.5,0,10,1,39.966362,-86.0046463,2,218,39.96643829,1,-86.00473022,-1000,2,2,29548,10,128,2,0,0,1581F6Z9A23ACML31DP9,20,3,0,11/23/2023 23:49,,,,
17971757,0,49:15.7,60601f0acffe,0,2437,0,WIFI_3,-62,0,0,17971752,17971752,24,1,24,0,0,0,154482554,322,109.5,0,10,1,39.966362,-86.0046463,2,218,39.96643829,1,-86.00473022,-1000,2,2,29548,10,128,2,0,0,1581F6Z9A23ACML31DP9,20,3,0,11/23/2023 23:49,,,,
17971756,0,49:15.7,60601f0acffe,0,2437,0,WIFI_3,-62,0,0,17971751,17971751,24,1,24,0,0,0,154482554,322,109.5,0,10,1,39.966362,-86.0046463,2,218,39.96643829,1,-86.00473022,-1000,2,2,29548,10,128,2,0,0,1581F6Z9A23ACML31DP9,20,3,0,11/23/2023 23:49,,,,
17971755,0,49:15.7,60601f0acffe,0,2437,0,WIFI_3,-62,0,0,17971750,17971750,24,1,24,0,0,0,154482554,322,109.5,0,10,1,39.966362,-86.00465393,2,218,39.96643829,1,-86.00473022,-1000,2,3,29546,10,128,2,0,0,1581F6Z9A23ACML31DP9,20,3,0,11/23/2023 23:49,,,,
17971751,0,49:15.6,60601f0acffe,0,2437,0,WIFI_3,-70,0,0,17971746,17971746,24,1,24,0,0,0,154482554,322,109.5,0,10,1,39.966362,-86.00465393,2,218,39.96643829,1,-86.00473022,-1000,2,3,29546,10,128,2,0,0,1581F6Z9A23ACML31DP9,20,3,0,11/23/2023 23:49,,,,
17971748,0,49:15.5,60601f0acffe,0,2437,0,WIFI_3,-70,0,0,17971743,17971743,24,1,24,0,0,0,154482554,322,109.5,0,10,1,39.966362,-86.00465393,2,218,39.96643829,1,-86.00473022,-1000,2,3,29546,10,128,2,0,0,1581F6Z9A23ACML31DP9,20,3,0,11/23/2023 23:49,,,,
17971747,0,49:15.5,60601f0acffe,0,2437,0,WIFI_3,-70,0,0,17971742,17971742,24,1,24,0,0,0,154482554,322,109.5,0,10,1,39.96637344,-86.00466919,2,218,39.96643829,1,-86.00473022,-1000,2,4.75,29542,10,128,2,0,0,1581F6Z9A23ACML31DP9,20,3,0,11/23/2023 23:49,,,,
17971733,0,49:15.1,60601f0acffe,0,2437,0,WIFI_3,-63,0,0,17971728,17971728,24,1,24,0,0,0,154482554,322,109.5,0,10,1,39.96637344,-86.00466919,2,218,39.96643829,1,-86.00473022,-1000,2,4.75,29542,10,128,2,0,0,1581F6Z9A23ACML31DP9,20,3,0,11/23/2023 23:49,,,,
17971732,0,49:15.1,60601f0acffe,0,2437,0,WIFI_3,-63,0,0,17971727,17971727,24,1,24,0,0,0,154482553,322,109.5,0,10,1,39.96639252,-86.00469971,2,218,39.96643829,1,-86.00473022,-1000,2,4.25,29536,10,128,2,0,0,1581F6Z9A23ACML31DP9,20,3,0,11/23/2023 23:49,,,,
17971731,0,49:15.0,60601f0acffe,0,2437,0,WIFI_3,-63,0,0,17971726,17971726,24,1,24,0,0,0,154482553,322,109.5,0,10,1,39.96637344,-86.00466919,2,218,39.96643829,1,-86.00473022,-1000,2,4.75,29542,10,128,2,0,0,1581F6Z9A23ACML31DP9,20,3,0,11/23/2023 23:49,,,,
17971724,0,49:14.4,60601f0acffe,0,2437,0,WIFI_3,-65,0,0,17971719,17971719,24,1,24,0,0,0,154482552,322,109.5,0,10,1,39.96639252,-86.00469971,2,218,39.96643829,1,-86.00473022,-1000,2,4.25,29536,10,128,2,0,0,1581F6Z9A23ACML31DP9,20,3,0,11/23/2023 23:49,,,,
17971723,0,49:14.4,60601f0acffe,0,2437,0,WIFI_3,-65,0,0,17971718,17971718,24,1,24,0,0,0,154482553,322,109.5,0,10,1,39.96639252,-86.00469971,2,218,39.96643829,1,-86.00473022,-1000,2,4.25,29536,10,128,2,0,0,1581F6Z9A23ACML31DP9,20,3,0,11/23/2023 23:49,,,,
17971722,0,49:14.4,60601f0acffe,0,2437,0,WIFI_3,-65,0,0,17971717,17971717,24,1,24,0,0,0,154482552,322,109.5,0,10,1,39.96640778,-86.0047226,2,218,39.96643829,1,-86.00473022,-1000,2,1.5,29528,10,130,2,0,0,1581F6Z9A23ACML31DP9,20,3,0,11/23/2023 23:49,,,,
17971707,0,49:13.6,60601f0acffe,0,2437,0,WIFI_3,-74,0,0,17971702,17971702,24,1,24,0,0,0,154482552,322,109.5,0,10,1,39.96640778,-86.0047226,2,218,39.96643829,1,-86.00473022,-1000,2,1.5,29528,10,130,2,0,0,1581F6Z9A23ACML31DP9,20,3,0,11/23/2023 23:49,,,,
17971706,0,49:13.6,60601f0acffe,0,2437,0,WIFI_3,-74,0,0,17971701,17971701,24,1,24,0,0,0,154482552,322,109.5,0,10,1,39.96640778,-86.0047226,2,218,39.96643829,1,-86.00473022,-1000,2,0.5,29522,10,128,2,0,0,1581F6Z9A23ACML31DP9,20,3,0,11/23/2023 23:49,,,,
17971705,0,49:13.6,60601f0acffe,0,2437,0,WIFI_3,-74,0,0,17971700,17971700,24,1,24,0,0,0,154482552,322,109.5,0,10,1,39.96640778,-86.0047226,2,218,39.96643829,1,-86.00473022,-1000,2,1.5,29528,10,130,2,0,0,1581F6Z9A23ACML31DP9,20,3,0,11/23/2023 23:49,,,,
17971697,0,49:13.1,60601f0acffe,0,2437,0,WIFI_3,-64,0,0,17971692,17971692,24,1,24,0,0,0,154482552,322,109.5,0,10,1,39.96640778,-86.0047226,2,218,39.96643829,1,-86.00473022,-1000,2,0.5,29522,10,128,2,0,0,1581F6Z9A23ACML31DP9,20,3,0,11/23/2023 23:49,,,,
17971696,0,49:13.1,60601f0acffe,0,2437,0,WIFI_3,-64,0,0,17971691,17971691,24,1,24,0,0,0,154482552,322,109.5,0,10,1,39.96640778,-86.0047226,2,218,39.96643829,1,-86.00473022,-1000,2,0.5,29522,10,128,2,0,0,1581F6Z9A23ACML31DP9,20,3,0,11/23/2023 23:49,,,,
17971695,0,49:13.1,60601f0acffe,0,2437,0,WIFI_3,-64,0,0,17971690,17971690,24,1,24,0,0,0,154482552,322,109.5,0,10,1,39.96640778,-86.0047226,2,218,39.96643829,1,-86.00473022,-1000,2,0.5,29522,10,128,2,0,0,1581F6Z9A23ACML31DP9,20,3,0,11/23/2023 23:49,,,,
17971691,0,49:13.0,60601f0acffe,0,2437,0,WIFI_3,-69,0,0,17971686,17971686,24,1,24,0,0,0,154482551,322,109.5,0,10,1,39.96640778,-86.0047226,2,218,39.96643829,1,-86.00473022,-1000,2,0.5,29522,10,128,2,0,0,1581F6Z9A23ACML31DP9,20,3,0,11/23/2023 23:49,,,,
17971690,0,49:13.0,60601f0acffe,0,2437,0,WIFI_3,-69,0,0,17971685,17971685,24,1,24,0,0,0,154482552,322,109.5,0,10,1,39.96640778,-86.0047226,2,218,39.96643829,1,-86.00473022,-1000,2,0.5,29522,10,128,2,0,0,1581F6Z9A23ACML31DP9,20,3,0,11/23/2023 23:49,,,,
17971689,0,49:12.9,60601f0acffe,0,2437,0,WIFI_3,-69,0,0,17971684,17971684,24,1,24,0,0,0,154482551,322,109.5,0,10,1,39.96641159,-86.00473022,2,218,39.96643829,1,-86.00473022,-1000,2,0,29518,10,361,2,0,0,1581F6Z9A23ACML31DP9,20,3,0,11/23/2023 23:49,,,,
17971688,0,49:12.8,60601f0acffe,0,2437,0,WIFI_3,-63,0,0,17971683,17971683,24,1,24,0,0,0,154482551,322,109.5,0,10,1,39.96641159,-86.00473022,2,218,39.96643829,1,-86.00473022,-1000,2,0,29518,10,361,2,0,0,1581F6Z9A23ACML31DP9,20,3,0,11/23/2023 23:49,,,,
17971687,0,49:12.8,60601f0acffe,0,2437,0,WIFI_3,-63,0,0,17971682,17971682,24,1,24,0,0,0,154482550,322,109.5,0,10,1,39.96641159,-86.00473022,2,218,39.96643829,1,-86.00473785,-1000,2,0,29518,10,361,2,0,0,1581F6Z9A23ACML31DP9,20,3,0,11/23/2023 23:49,,,,
17971686,0,49:12.8,60601f0acffe,0,2437,0,WIFI_3,-63,0,0,17971681,17971681,24,1,24,0,0,0,154482550,322,109.5,0,10,1,39.96641159,-86.00473022,2,218,39.96643829,1,-86.00473785,-1000,2,0,29506,10,361,2,0,0,1581F6Z9A23ACML31DP9,20,3,0,11/23/2023 23:49,,,,
17971666,0,49:11.6,60601f0acffe,0,2437,0,WIFI_3,-68,0,0,17971661,17971661,24,1,24,0,0,0,154482550,322,109.5,0,10,1,39.96641159,-86.00473022,2,218,39.96643829,1,-86.00473785,-1000,2,0,29506,10,361,2,0,0,1581F6Z9A23ACML31DP9,20,3,0,11/23/2023 23:49,,,,
17971665,0,49:11.6,60601f0acffe,0,2437,0,WIFI_3,-68,0,0,17971660,17971660,24,1,24,0,0,0,154482550,322,109.5,0,10,1,39.96641159,-86.00473022,2,218,39.96643829,1,-86.00473785,-1000,2,0,29506,10,361,2,0,0,1581F6Z9A23ACML31DP9,20,3,0,11/23/2023 23:49,,,,
17971664,0,49:11.5,60601f0acffe,0,2437,0,WIFI_3,-68,0,0,17971659,17971659,24,1,24,0,0,0,154482550,322,109.5,0,10,1,39.96641159,-86.00473022,2,218,39.96643829,1,-86.00473785,-1000,2,0,29504,10,361,2,0,0,1581F6Z9A23ACML31DP9,20,3,0,11/23/2023 23:49,,,,
17971662,0,49:11.3,60601f0acffe,0,2437,0,WIFI_3,-71,0,0,17971657,17971657,24,1,24,0,0,0,154482550,322,109.5,0,10,1,39.96641159,-86.00473022,2,218,39.96643829,1,-86.00473785,-1000,2,0,29504,10,361,2,0,0,1581F6Z9A23ACML31DP9,20,3,0,11/23/2023 23:49,,,,
17971661,0,49:11.2,60601f0acffe,0,2437,0,WIFI_3,-71,0,0,17971656,17971656,24,1,24,0,0,0,154482549,322,109.5,0,10,1,39.96641159,-86.00473022,2,218,39.96643829,1,-86.00474548,-1000,2,0,29504,10,361,2,0,0,1581F6Z9A23ACML31DP9,20,3,0,11/23/2023 23:49,,,,
17971659,0,49:11.2,60601f0acffe,0,2437,0,WIFI_3,-71,0,0,17971654,17971654,24,1,24,0,0,0,154482549,322,109.5,0,10,1,39.96641159,-86.00473022,2,218,39.96643829,1,-86.00474548,-1000,2,0,29498,10,361,2,0,0,1581F6Z9A23ACML31DP9,20,3,0,11/23/2023 23:49,,,,
17971649,0,49:10.6,60601f0acffe,0,2437,0,WIFI_3,-69,0,0,17971644,17971644,24,1,24,0,0,0,154482549,322,109.5,0,10,1,39.96641159,-86.00473022,2,218,39.96643829,1,-86.00474548,-1000,2,0,29498,10,361,2,0,0,1581F6Z9A23ACML31DP9,20,3,0,11/23/2023 23:49,,,,
17971645,0,49:10.6,60601f0acffe,0,2437,0,WIFI_3,-69,0,0,17971640,17971640,24,1,24,0,0,0,154482549,322,109.5,0,10,1,39.96641159,-86.00473022,2,218,39.96643829,1,-86.00474548,-1000,2,0,29498,10,361,2,0,0,1581F6Z9A23ACML31DP9,20,3,0,11/23/2023 23:49,,,,
17971644,0,49:10.5,60601f0acffe,0,2437,0,WIFI_3,-69,0,0,17971639,17971639,24,1,24,0,0,0,154482549,322,109.5,0,10,1,39.96641159,-86.00473022,2,218,39.96643829,1,-86.00474548,-1000,2,0,29496,10,361,2,0,0,1581F6Z9A23ACML31DP9,20,3,0,11/23/2023 23:49,,,,
17971643,0,49:10.5,60601f0acffe,0,2437,0,WIFI_3,-66,0,0,17971638,17971638,24,1,24,0,0,0,154482549,322,109.5,0,10,1,39.96641159,-86.00473022,2,218,39.96643829,1,-86.00474548,-1000,2,0,29496,10,361,2,0,0,1581F6Z9A23ACML31DP9,20,3,0,11/23/2023 23:49,,,,
17971642,0,49:10.4,60601f0acffe,0,2437,0,WIFI_3,-66,0,0,17971637,17971637,24,1,24,0,0,0,154482548,322,109.5,0,10,1,39.96641159,-86.00473022,2,218,39.96643448,1,-86.00475311,-1000,2,0,29496,10,361,2,0,0,1581F6Z9A23ACML31DP9,20,3,0,11/23/2023 23:49,,,,
17971641,0,49:10.4,60601f0acffe,0,2437,0,WIFI_3,-66,0,0,17971636,17971636,24,1,24,0,0,0,154482548,322,109.5,0,10,1,39.96640778,-86.0047226,2,218,39.96643448,1,-86.00475311,-1000,2,0,29486,10,361,2,0,0,1581F6Z9A23ACML31DP9,20,3,0,11/23/2023 23:49,,,,
17971630,0,49:09.7,60601f0acffe,0,2437,0,WIFI_3,-67,0,0,17971625,17971625,24,1,24,0,0,0,154482548,322,109.5,0,10,1,39.96640778,-86.0047226,2,218,39.96643448,1,-86.00475311,-1000,2,0,29486,10,361,2,0,0,1581F6Z9A23ACML31DP9,20,3,0,11/23/2023 23:49,,,,
17971629,0,49:09.7,60601f0acffe,0,2437,0,WIFI_3,-67,0,0,17971624,17971624,24,1,24,0,0,0,154482548,322,109.5,0,10,1,39.96640778,-86.0047226,2,218,39.96643448,1,-86.00475311,-1000,2,0,29486,10,361,2,0,0,1581F6Z9A23ACML31DP9,20,3,0,11/23/2023 23:49,,,,
17971627,0,49:09.6,60601f0acffe,0,2437,0,WIFI_3,-67,0,0,17971622,17971622,24,1,24,0,0,0,154482548,322,109.5,0,10,1,39.96640778,-86.0047226,2,218,39.96643448,1,-86.00475311,-1000,2,0,29482,10,361,2,0,0,1581F6Z9A23ACML31DP9,20,3,0,11/23/2023 23:49,,,,
17971626,0,49:09.2,60601f0acffe,0,2437,0,WIFI_3,-65,0,0,17971621,17971621,24,1,24,0,0,0,154482548,322,109.5,0,10,1,39.96640778,-86.0047226,2,218,39.96643448,1,-86.00475311,-1000,2,0,29482,10,361,2,0,0,1581F6Z9A23ACML31DP9,20,3,0,11/23/2023 23:49,,,,
17971625,0,49:09.2,60601f0acffe,0,2437,0,WIFI_3,-65,0,0,17971620,17971620,24,1,24,0,0,0,154482548,322,109.5,0,10,1,39.96640778,-86.0047226,2,218,39.96643448,1,-86.00475311,-1000,2,0,29482,10,361,2,0,0,1581F6Z9A23ACML31DP9,20,3,0,11/23/2023 23:49,,,,
17971624,0,49:09.1,60601f0acffe,0,2437,0,WIFI_3,-65,0,0,17971619,17971619,24,1,24,0,0,0,154482548,322,109.5,0,10,1,39.96640778,-86.0047226,2,218,39.96643448,1,-86.00475311,-1000,2,0,29480,10,361,2,0,0,1581F6Z9A23ACML31DP9,20,3,0,11/23/2023 23:49,,,,
17971623,0,49:09.0,60601f0acffe,0,2437,0,WIFI_3,-70,0,0,17971618,17971618,24,1,24,0,0,0,154482547,322,109.5,0,10,1,39.96640778,-86.0047226,2,218,39.96643448,1,-86.00475311,-1000,2,0,29480,10,361,2,0,0,1581F6Z9A23ACML31DP9,20,3,0,11/23/2023 23:49,,,,
17971621,0,49:09.0,60601f0acffe,0,2437,0,WIFI_3,-70,0,0,17971616,17971616,24,1,24,0,0,0,154482548,322,109.5,0,10,1,39.96640778,-86.0047226,2,218,39.96643448,1,-86.00475311,-1000,2,0,29480,10,361,2,0,0,1581F6Z9A23ACML31DP9,20,3,0,11/23/2023 23:49,,,,
17971620,0,49:09.0,60601f0acffe,0,2437,0,WIFI_3,-70,0,0,17971615,17971615,24,1,24,0,0,0,154482547,321,109.5,0,10,1,39.96640778,-86.0047226,2,218,39.96643448,1,-86.00475311,-1000,2,0,29474,10,361,2,0,0,1581F6Z9A23ACML31DP9,20,3,1,11/23/2023 23:49,,,,
17971610,0,49:08.4,60601f0acffe,0,2437,0,WIFI_3,-66,0,0,17971605,17971605,24,1,24,0,0,0,154482546,319,107.5,0,10,1,39.96640778,-86.00473022,2,217,39.96643066,1,-86.00476074,-1000,2,0,29466,10,361,2,0,0,1581F6Z9A23ACML31DP9,20,3,3.5,11/23/2023 23:49,,,,
17971609,0,49:08.4,60601f0acffe,0,2437,0,WIFI_3,-66,0,0,17971604,17971604,24,1,24,0,0,0,154482547,321,109.5,0,10,1,39.96640778,-86.0047226,2,218,39.96643448,1,-86.00475311,-1000,2,0,29474,10,361,2,0,0,1581F6Z9A23ACML31DP9,20,3,1,11/23/2023 23:49,,,,
17971608,0,49:08.3,60601f0acffe,0,2437,0,WIFI_3,-66,0,0,17971603,17971603,24,1,24,0,0,0,154482546,321,109.5,0,10,1,39.96640778,-86.0047226,2,217,39.96643066,1,-86.00476074,-1000,2,0,29474,10,361,2,0,0,1581F6Z9A23ACML31DP9,20,3,1,11/23/2023 23:49,,,,
17971598,0,49:07.7,60601f0acffe,0,2437,0,WIFI_3,-69,0,0,17971593,17971593,24,1,24,0,0,0,154482546,319,107.5,0,10,1,39.96640778,-86.00473022,2,217,39.96643066,1,-86.00476074,-1000,2,0,29466,10,361,2,0,0,1581F6Z9A23ACML31DP9,20,3,3.5,11/23/2023 23:49,,,,
17971597,0,49:07.7,60601f0acffe,0,2437,0,WIFI_3,-69,0,0,17971592,17971592,24,1,24,0,0,0,154482546,319,107.5,0,10,1,39.96640778,-86.00473022,2,217,39.96643066,1,-86.00476074,-1000,2,0,29466,10,361,2,0,0,1581F6Z9A23ACML31DP9,20,3,3.5,11/23/2023 23:49,,,,
17971596,0,49:07.7,60601f0acffe,0,2437,0,WIFI_3,-69,0,0,17971591,17971591,24,1,24,0,0,0,154482546,319,107.5,0,10,1,39.96640778,-86.00473022,2,217,39.96643066,1,-86.00476074,-1000,2,0,29466,10,361,2,0,0,1581F6Z9A23ACML31DP9,20,3,3.5,11/23/2023 23:49,,,,
17971594,0,49:07.4,60601f0acffe,0,2437,0,WIFI_3,-66,0,0,17971589,17971589,24,1,24,0,0,0,154482545,319,107.5,0,10,1,39.96640778,-86.00473022,2,217,39.96643066,1,-86.00476074,-1000,2,0,29466,10,361,2,0,0,1581F6Z9A23ACML31DP9,20,3,3.5,11/23/2023 23:49,,,,
17971593,0,49:07.4,60601f0acffe,0,2437,0,WIFI_3,-66,0,0,17971588,17971588,24,1,24,0,0,0,154482546,319,107.5,0,10,1,39.96640778,-86.00473022,2,217,39.96643066,1,-86.00476074,-1000,2,0,29466,10,361,2,0,0,1581F6Z9A23ACML31DP9,20,3,3.5,11/23/2023 23:49,,,,
17971592,0,49:07.4,60601f0acffe,0,2437,0,WIFI_3,-66,0,0,17971587,17971587,24,1,24,0,0,0,154482545,316,104,0,10,1,39.96640778,-86.00473022,2,217,39.96643066,1,-86.00476074,-1000,2,0,29458,10,361,2,0,0,1581F6Z9A23ACML31DP9,20,3,4,11/23/2023 23:49,,,,
17971584,0,49:07.0,60601f0acffe,0,2437,0,WIFI_1,-69,0,0,17971579,17971579,24,1,24,0,0,0,154482545,316,104,0,10,1,39.96640778,-86.00473022,2,217,39.96643066,1,-86.00476074,-1000,2,0,29458,10,361,2,0,0,1581F6Z9A23ACML31DP9,20,3,4,11/23/2023 23:49,,,,
17971583,0,49:06.9,60601f0acffe,0,2437,0,WIFI_1,-69,0,0,17971578,17971578,24,1,24,0,0,0,154482545,316,104,0,10,1,39.96640778,-86.00473022,2,217,39.96643066,1,-86.00476074,-1000,2,0,29458,10,361,2,0,0,1581F6Z9A23ACML31DP9,20,3,4,11/23/2023 23:49,,,,
17971581,0,49:06.9,60601f0acffe,0,2437,0,WIFI_1,-69,0,0,17971576,17971576,24,1,24,0,0,0,154482545,316,104,0,10,1,39.96640778,-86.00473022,2,217,39.96643066,1,-86.00476074,-1000,2,0,29458,10,361,2,0,0,1581F6Z9A23ACML31DP9,20,3,4,11/23/2023 23:49,,,,
17971580,0,49:06.8,60601f0acffe,0,2437,0,WIFI_3,-65,0,0,17971575,17971575,24,1,24,0,0,0,154482545,316,104,0,10,1,39.96640778,-86.00473022,2,217,39.96643066,1,-86.00476074,-1000,2,0,29458,10,361,2,0,0,1581F6Z9A23ACML31DP9,20,3,4,11/23/2023 23:49,,,,
17971576,0,49:06.8,60601f0acffe,0,2437,0,WIFI_1,-65,0,0,17971571,17971571,24,1,24,0,0,0,154482545,316,104,0,10,1,39.96640778,-86.00473022,2,217,39.96643066,1,-86.00476074,-1000,2,0,29458,10,361,2,0,0,1581F6Z9A23ACML31DP9,20,3,4,11/23/2023 23:49,,,,
17971575,0,49:06.7,60601f0acffe,0,2437,0,WIFI_1,-65,0,0,17971570,17971570,24,1,24,0,0,0,154482545,315,102.5,0,10,1,39.96641159,-86.00473022,2,217,39.96643066,1,-86.00476074,-1000,2,0,29454,10,361,2,0,0,1581F6Z9A23ACML31DP9,20,3,4,11/23/2023 23:49,,,,
17971574,0,49:06.7,60601f0acffe,0,2437,0,WIFI_3,-65,0,0,17971569,17971569,24,1,24,0,0,0,154482545,316,104,0,10,1,39.96640778,-86.00473022,2,217,39.96643066,1,-86.00476074,-1000,2,0,29458,10,361,2,0,0,1581F6Z9A23ACML31DP9,20,3,4,11/23/2023 23:49,,,,
17971573,0,49:06.7,60601f0acffe,0,2437,0,WIFI_3,-65,0,0,17971568,17971568,24,1,24,0,0,0,154482545,316,104,0,10,1,39.96640778,-86.00473022,2,217,39.96643066,1,-86.00476074,-1000,2,0,29458,10,361,2,0,0,1581F6Z9A23ACML31DP9,20,3,4,11/23/2023 23:49,,,,
17971572,0,49:06.7,60601f0acffe,0,2437,0,WIFI_1,-65,0,0,17971567,17971567,24,1,24,0,0,0,154482545,316,104,0,10,1,39.96640778,-86.00473022,2,217,39.96643066,1,-86.00476074,-1000,2,0,29458,10,361,2,0,0,1581F6Z9A23ACML31DP9,20,3,4,11/23/2023 23:49,,,,
17971571,0,49:06.6,60601f0acffe,0,2437,0,WIFI_3,-67,0,0,17971566,17971566,24,1,24,0,0,0,154482545,316,104,0,10,1,39.96640778,-86.00473022,2,217,39.96643066,1,-86.00476074,-1000,2,0,29458,10,361,2,0,0,1581F6Z9A23ACML31DP9,20,3,4,11/23/2023 23:49,,,,
17971569,0,49:06.6,60601f0acffe,0,2437,0,WIFI_3,-67,0,0,17971564,17971564,24,1,24,0,0,0,154482545,316,104,0,10,1,39.96640778,-86.00473022,2,217,39.96643066,1,-86.00476074,-1000,2,0,29458,10,361,2,0,0,1581F6Z9A23ACML31DP9,20,3,4,11/23/2023 23:49,,,,
17971567,0,49:06.6,60601f0acffe,0,2437,0,WIFI_1,-65,0,0,17971562,17971562,24,1,24,0,0,0,154482528,245,31,0,10,1,39.96641159,-86.0047226,2,214,39.96641159,1,-86.00478363,-1000,2,0,29286,10,361,2,0,0,1581F6Z9A23ACML31DP9,20,3,4,11/23/2023 23:48,,,,
17971566,0,49:06.6,60601f0acffe,0,2437,0,WIFI_3,-67,0,0,17971561,17971561,24,1,24,0,0,0,154482545,315,102.5,0,10,1,39.96641159,-86.00473022,2,217,39.96643066,1,-86.00476074,-1000,2,0,29454,10,361,2,0,0,1581F6Z9A23ACML31DP9,20,3,4,11/23/2023 23:49,,,,
17971562,0,49:06.5,60601f0acffe,0,2437,0,WIFI_1,-65,0,0,17971557,17971557,24,1,24,0,0,0,154482545,315,102.5,0,10,1,39.96641159,-86.00473022,2,217,39.96643066,1,-86.00476074,-1000,2,0,29454,10,361,2,0,0,1581F6Z9A23ACML31DP9,20,3,4,11/23/2023 23:49,,,,
17971561,0,49:06.5,60601f0acffe,0,2437,0,WIFI_1,-65,0,0,17971556,17971556,24,1,24,0,0,0,154482528,315,102.5,0,10,1,39.96641159,-86.00473022,2,214,39.96641159,1,-86.00478363,-1000,2,0,29454,10,361,2,0,0,1581F6Z9A23ACML31DP9,20,3,4,11/23/2023 23:48,,,,
17971560,0,49:06.4,60601f0acffe,0,2437,0,WIFI_3,-72,0,0,17971555,17971555,24,1,24,0,0,0,154482545,315,102.5,0,10,1,39.96641159,-86.00473022,2,217,39.96643066,1,-86.00476074,-1000,2,0,29454,10,361,2,0,0,1581F6Z9A23ACML31DP9,20,3,4,11/23/2023 23:49,,,,
17971559,0,49:06.4,60601f0acffe,0,2437,0,WIFI_3,-72,0,0,17971554,17971554,24,1,24,0,0,0,154482545,314,101.5,0,10,1,39.96641159,-86.00473022,2,217,39.96643066,1,-86.00476074,-1000,2,0,29452,10,361,2,0,0,1581F6Z9A23ACML31DP9,20,3,4,11/23/2023 23:49,,,,
17971558,0,49:06.4,60601f0acffe,0,2437,0,WIFI_3,-72,0,0,17971553,17971553,24,1,24,0,0,0,154482545,315,102.5,0,10,1,39.96641159,-86.00473022,2,217,39.96643066,1,-86.00476074,-1000,2,0,29454,10,361,2,0,0,1581F6Z9A23ACML31DP9,20,3,4,11/23/2023 23:49,,,,
17971552,0,49:06.1,60601f0acffe,0,2437,0,WIFI_3,-67,0,0,17971547,17971547,24,1,24,0,0,0,154482545,314,101.5,0,10,1,39.96641159,-86.00473022,2,217,39.96643066,1,-86.00476074,-1000,2,0,29452,10,361,2,0,0,1581F6Z9A23ACML31DP9,20,3,4,11/23/2023 23:49,,,,
17971551,0,49:06.1,60601f0acffe,0,2437,0,WIFI_3,-67,0,0,17971546,17971546,24,1,24,0,0,0,154482544,311,99,0,10,1,39.96640778,-86.00473022,2,217,39.96643066,1,-86.00476837,-1000,2,0,29446,10,361,2,0,0,1581F6Z9A23ACML31DP9,20,3,4,11/23/2023 23:49,,,,
17971550,0,49:06.1,60601f0acffe,0,2437,0,WIFI_3,-67,0,0,17971545,17971545,24,1,24,0,0,0,154482544,314,101.5,0,10,1,39.96641159,-86.00473022,2,217,39.96643066,1,-86.00476837,-1000,2,0,29452,10,361,2,0,0,1581F6Z9A23ACML31DP9,20,3,4,11/23/2023 23:49,,,,
17971548,0,49:05.5,60601f0acffe,0,2437,0,WIFI_3,-65,0,0,17971543,17971543,24,1,24,0,0,0,154482544,311,99,0,10,1,39.96640778,-86.00473022,2,217,39.96643066,1,-86.00476837,-1000,2,0,29446,10,361,2,0,0,1581F6Z9A23ACML31DP9,20,3,4,11/23/2023 23:49,,,,
17971547,0,49:05.5,60601f0acffe,0,2437,0,WIFI_3,-65,0,0,17971542,17971542,24,1,24,0,0,0,154482544,311,99,0,10,1,39.96640778,-86.00473022,2,217,39.96643066,1,-86.00476837,-1000,2,0,29446,10,361,2,0,0,1581F6Z9A23ACML31DP9,20,3,4,11/23/2023 23:49,,,,
17971546,0,49:05.4,60601f0acffe,0,2437,0,WIFI_3,-65,0,0,17971541,17971541,24,1,24,0,0,0,154482544,310,97.5,0,10,1,39.96640778,-86.00473022,2,217,39.96643066,1,-86.00476837,-1000,2,0,29442,10,361,2,0,0,1581F6Z9A23ACML31DP9,20,3,4,11/23/2023 23:49,,,,
17971544,0,49:05.2,60601f0acffe,0,2437,0,WIFI_3,-66,0,0,17971539,17971539,24,1,24,0,0,0,154482544,310,97.5,0,10,1,39.96640778,-86.00473022,2,217,39.96643066,1,-86.00476837,-1000,2,0,29442,10,361,2,0,0,1581F6Z9A23ACML31DP9,20,3,4,11/23/2023 23:49,,,,
17971543,0,49:05.2,60601f0acffe,0,2437,0,WIFI_3,-66,0,0,17971538,17971538,24,1,24,0,0,0,154482543,310,97.5,0,10,1,39.96640778,-86.00473022,2,216,39.96642685,1,-86.00476837,-1000,2,0,29442,10,361,2,0,0,1581F6Z9A23ACML31DP9,20,3,4,11/23/2023 23:49,,,,
17971539,0,49:05.1,60601f0acffe,0,2437,0,WIFI_3,-66,0,0,17971534,17971534,24,1,24,0,0,0,154482543,306,94,0,10,1,39.96640778,-86.00473022,2,216,39.96642685,1,-86.00476837,-1000,2,0,29434,10,361,2,0,0,1581F6Z9A23ACML31DP9,20,3,4,11/23/2023 23:49,,,,
17971529,0,49:04.2,60601f0acffe,0,2437,0,WIFI_3,-69,0,0,17971524,17971524,24,1,24,0,0,0,154482543,306,94,0,10,1,39.96640778,-86.00473022,2,216,39.96642685,1,-86.00476837,-1000,2,0,29434,10,361,2,0,0,1581F6Z9A23ACML31DP9,20,3,4,11/23/2023 23:49,,,,
17971528,0,49:04.2,60601f0acffe,0,2437,0,WIFI_3,-69,0,0,17971523,17971523,24,1,24,0,0,0,154482543,306,94,0,10,1,39.96640778,-86.00473022,2,216,39.96642685,1,-86.00476837,-1000,2,0,29434,10,361,2,0,0,1581F6Z9A23ACML31DP9,20,3,4,11/23/2023 23:49,,,,
17971527,0,49:04.2,60601f0acffe,0,2437,0,WIFI_3,-69,0,0,17971522,17971522,24,1,24,0,0,0,154482543,306,93,0,10,1,39.96640778,-86.00473022,2,216,39.96642685,1,-86.00476837,-1000,2,0,29432,10,361,2,0,0,1581F6Z9A23ACML31DP9,20,3,4,11/23/2023 23:49,,,,
17971523,0,49:04.0,60601f0acffe,0,2437,0,WIFI_3,-61,0,0,17971518,17971518,24,1,24,0,0,0,154482543,306,93,0,10,1,39.96640778,-86.00473022,2,216,39.96642685,1,-86.00476837,-1000,2,0,29432,10,361,2,0,0,1581F6Z9A23ACML31DP9,20,3,4,11/23/2023 23:49,,,,
17971522,0,49:04.0,60601f0acffe,0,2437,0,WIFI_3,-61,0,0,17971517,17971517,24,1,24,0,0,0,154482542,306,93,0,10,1,39.96640778,-86.00473022,2,216,39.96642303,1,-86.00476837,-1000,2,0,29432,10,361,2,0,0,1581F6Z9A23ACML31DP9,20,3,4,11/23/2023 23:49,,,,
17971521,0,49:04.0,60601f0acffe,0,2437,0,WIFI_3,-61,0,0,17971516,17971516,24,1,24,0,0,0,154482542,301,89,0,10,1,39.96640778,-86.00473022,2,216,39.96642303,1,-86.00476837,-1000,2,0,29422,10,361,2,0,0,1581F6Z9A23ACML31DP9,20,3,4,11/23/2023 23:49,,,,
17971515,0,49:03.2,60601f0acffe,0,2437,0,WIFI_3,-72,0,0,17971510,17971510,24,1,24,0,0,0,154482542,301,89,0,10,1,39.96640778,-86.00473022,2,216,39.96642303,1,-86.00476837,-1000,2,0,29422,10,361,2,0,0,1581F6Z9A23ACML31DP9,20,3,4,11/23/2023 23:49,,,,
17971514,0,49:03.2,60601f0acffe,0,2437,0,WIFI_3,-72,0,0,17971509,17971509,24,1,24,0,0,0,154482542,301,89,0,10,1,39.96640778,-86.00473022,2,216,39.96642303,1,-86.004776,-1000,2,0,29422,10,361,2,0,0,1581F6Z9A23ACML31DP9,20,3,4,11/23/2023 23:49,,,,
17971511,0,49:03.2,60601f0acffe,0,2437,0,WIFI_3,-72,0,0,17971506,17971506,24,1,24,0,0,0,154482542,301,88,0,10,1,39.96640778,-86.00473022,2,216,39.96642303,1,-86.004776,-1000,2,0,29420,10,361,2,0,0,1581F6Z9A23ACML31DP9,20,3,4,11/23/2023 23:49,,,,
17971508,0,49:02.9,60601f0acffe,0,2437,0,WIFI_3,-62,0,0,17971503,17971503,24,1,24,0,0,0,154482542,301,88,0,10,1,39.96640778,-86.00473022,2,216,39.96642303,1,-86.004776,-1000,2,0,29420,10,361,2,0,0,1581F6Z9A23ACML31DP9,20,3,4,11/23/2023 23:49,,,,
17971507,0,49:02.9,60601f0acffe,0,2437,0,WIFI_3,-62,0,0,17971502,17971502,24,1,24,0,0,0,154482541,301,88,0,10,1,39.96640778,-86.00473022,2,216,39.96642303,1,-86.004776,-1000,2,0,29420,10,361,2,0,0,1581F6Z9A23ACML31DP9,20,3,4,11/23/2023 23:49,,,,
17971505,0,49:02.9,60601f0acffe,0,2437,0,WIFI_3,-62,0,0,17971500,17971500,24,1,24,0,0,0,154482541,299,86.5,0,10,1,39.96640778,-86.00473022,2,216,39.96642303,1,-86.004776,-1000,2,0,29416,10,361,2,0,0,1581F6Z9A23ACML31DP9,20,3,4,11/23/2023 23:49,,,,
17971501,0,49:02.6,60601f0acffe,0,2437,0,WIFI_3,-65,0,0,17971496,17971496,24,1,24,0,0,0,154482540,299,86.5,0,10,1,39.96640778,-86.00473022,2,216,39.96641922,1,-86.00476837,-1000,2,0,29416,10,361,2,0,0,1581F6Z9A23ACML31DP9,20,3,4,11/23/2023 23:49,,,,
17971500,0,49:02.6,60601f0acffe,0,2437,0,WIFI_3,-65,0,0,17971495,17971495,24,1,24,0,0,0,154482541,299,86.5,0,10,1,39.96640778,-86.00473022,2,216,39.96642303,1,-86.004776,-1000,2,0,29416,10,361,2,0,0,1581F6Z9A23ACML31DP9,20,3,4,11/23/2023 23:49,,,,
17971497,0,49:02.5,60601f0acffe,0,2437,0,WIFI_3,-65,0,0,17971492,17971492,24,1,24,0,0,0,154482540,293,80.5,0,10,1,39.96640778,-86.00473022,2,216,39.96641922,1,-86.00476837,-1000,2,0,29402,10,361,2,0,0,1581F6Z9A23ACML31DP9,20,3,4,11/23/2023 23:49,,,,
17971479,0,49:01.0,60601f0acffe,0,2437,0,WIFI_3,-65,0,0,17971473,17971473,24,1,24,0,0,0,154482540,293,80.5,0,10,1,39.96640778,-86.00473022,2,216,39.96641922,1,-86.00476837,-1000,2,0,29402,10,361,2,0,0,1581F6Z9A23ACML31DP9,20,3,4,11/23/2023 23:49,,,,
17971478,0,49:01.0,60601f0acffe,0,2437,0,WIFI_3,-65,0,0,17971474,17971474,24,1,24,0,0,0,154482539,293,80.5,0,10,1,39.96640778,-86.00473022,2,216,39.96641922,1,-86.00476837,-1000,2,0,29402,10,361,2,0,0,1581F6Z9A23ACML31DP9,20,3,4,11/23/2023 23:48,,,,
17971477,0,49:01.0,60601f0acffe,0,2437,0,WIFI_3,-65,0,0,17971472,17971472,24,1,24,0,0,0,154482539,291,78,0,10,1,39.96640778,-86.00473022,2,216,39.96641922,1,-86.00476837,-1000,2,0,29396,10,361,2,0,0,1581F6Z9A23ACML31DP9,20,3,4,11/23/2023 23:48,,,,
17971467,0,49:00.7,60601f0acffe,0,2437,0,WIFI_3,-66,0,0,17971462,17971462,24,1,24,0,0,0,154482539,291,78,0,10,1,39.96640778,-86.00473022,2,216,39.96641922,1,-86.00476837,-1000,2,0,29396,10,361,2,0,0,1581F6Z9A23ACML31DP9,20,3,4,11/23/2023 23:48,,,,
17971466,0,49:00.7,60601f0acffe,0,2437,0,WIFI_3,-66,0,0,17971461,17971461,24,1,24,0,0,0,154482539,291,78,0,10,1,39.96640778,-86.00473022,2,216,39.96641922,1,-86.00476837,-1000,2,0,29396,10,361,2,0,0,1581F6Z9A23ACML31DP9,20,3,4,11/23/2023 23:48,,,,
17971464,0,49:00.6,60601f0acffe,0,2437,0,WIFI_3,-66,0,0,17971459,17971459,24,1,24,0,0,0,154482539,290,77,0,10,1,39.96640778,-86.00473022,2,216,39.96641922,1,-86.00476837,-1000,2,0,29394,10,361,2,0,0,1581F6Z9A23ACML31DP9,20,3,4.5,11/23/2023 23:48,,,,
17971461,0,49:00.4,60601f0acffe,0,2437,0,WIFI_3,-70,0,0,17971456,17971456,24,1,24,0,0,0,154482539,290,77,0,10,1,39.96640778,-86.00473022,2,216,39.96641922,1,-86.00476837,-1000,2,0,29394,10,361,2,0,0,1581F6Z9A23ACML31DP9,20,3,4.5,11/23/2023 23:48,,,,
17971460,0,49:00.4,60601f0acffe,0,2437,0,WIFI_3,-70,0,0,17971455,17971455,24,1,24,0,0,0,154482539,290,77,0,10,1,39.96640778,-86.00473022,2,216,39.96641922,1,-86.00476837,-1000,2,0,29394,10,361,2,0,0,1581F6Z9A23ACML31DP9,20,3,4.5,11/23/2023 23:48,,,,
17971459,0,49:00.3,60601f0acffe,0,2437,0,WIFI_3,-70,0,0,17971454,17971454,24,1,24,0,0,0,154482539,288,75.5,0,10,1,39.96640778,-86.00473022,2,216,39.96641922,1,-86.00476837,-1000,2,0,29390,10,361,2,0,0,1581F6Z9A23ACML31DP9,20,3,4.5,11/23/2023 23:48,,,,
